City_ID,City,Lat,Lng,Max Temp,Humidity,Cloudiness,Wind Speed,Country,Date
0,puerto natales,-51.7236,-72.4875,2.25,93,100,0.51,CL,1722710518
1,bethel,41.3712,-73.414,33.13,64,75,4.12,US,1722710519
2,bakchar,57.0186,82.0711,17.36,97,100,0.12,RU,1722710519
3,pingzhuang,42.0372,119.2889,22.83,97,100,2.89,CN,1722710520
4,adamstown,-25.066,-130.1015,20.83,72,19,6.3,PN,1722710520
5,saacow,1.6279,42.4407,24.88,72,98,8.33,SO,1722710521
6,raja,8.4596,25.678,22.42,92,82,1.49,SS,1722710521
7,port angeles,48.1181,-123.4307,22.19,71,0,3.09,US,1722710522
8,alice springs,-23.7,133.8833,13.75,30,40,3.6,AU,1722710522
9,new norfolk,-42.7826,147.0587,8.84,71,96,3.99,AU,1722710523
10,sur,22.5667,59.5289,32.67,56,100,3.36,OM,1722710523
11,olonkinbyen,70.9221,-8.7187,5.38,89,79,4.29,SJ,1722710524
12,lazaro cardenas,17.9583,-102.2,30.6,60,99,1.65,MX,1722710524
13,puerto ayora,-0.7393,-90.3518,23.98,82,75,3.13,EC,1722710525
14,kete krachi,7.7939,-0.0498,25.42,83,55,3.49,GH,1722710526
15,nelidovo,56.2211,32.7774,13.69,95,12,1.86,RU,1722710526
16,ushuaia,-54.8,-68.3,-1.19,80,75,4.12,AR,1722710527
17,bilibino,68.0546,166.4372,5.95,74,96,1.12,RU,1722710527
18,port-aux-francais,-49.35,70.2167,2.79,81,10,10.61,TF,1722710528
19,thompson,55.7435,-97.8558,17.09,45,75,4.63,CA,1722710528
20,nampula,-15.1165,39.2666,20.97,73,0,4.12,MZ,1722710529
21,yellowknife,62.456,-114.3525,20.79,42,75,5.66,CA,1722710529
22,petropavlovsk-kamchatsky,53.0452,158.6483,10.33,100,0,2.0,RU,1722710530
23,quzhou,28.9594,118.8686,25.28,79,100,0.44,CN,1722710530
24,minas de marcona,-15.2119,-75.1103,18.79,48,0,6.7,PE,1722710531
25,praia da vitoria,38.7333,-27.0667,26.14,69,20,0.21,PT,1722710532
26,port mathurin,-19.6833,63.4167,22.45,67,15,5.16,MU,1722710532
27,palikir - national government center,6.9248,158.1611,23.41,94,40,2.06,FM,1722710533
28,whitehorse,60.7161,-135.0538,16.17,54,75,3.09,CA,1722710533
29,jamestown,42.097,-79.2353,24.8,88,75,4.63,US,1722710242
30,sumbawa besar,-8.5,117.4333,21.35,97,61,1.55,ID,1722710534
31,isafjordur,66.0755,-23.124,12.02,76,75,8.23,IS,1722710535
32,iqaluit,63.7506,-68.5145,8.85,61,20,5.14,CA,1722710535
33,badger,64.8,-147.5333,11.14,90,100,2.57,US,1722710536
34,nar'yan-mar,67.6713,53.087,10.52,78,98,7.83,RU,1722710536
35,ribeira grande,38.5167,-28.7,26.22,73,20,4.63,PT,1722710537
36,waitangi,-43.9535,-176.5597,8.23,79,29,1.79,NZ,1722710534
37,invercargill,-46.4,168.35,1.68,93,89,1.79,NZ,1722710537
38,praia,14.9215,-23.5087,27.3,65,75,4.12,CV,1722710538
39,saldanha,-33.0117,17.9442,9.03,81,85,3.63,ZA,1722710538
40,qaqortoq,60.7167,-46.0333,9.59,69,0,3.52,GL,1722710539
41,juan griego,11.0817,-63.9655,32.07,62,60,8.75,VE,1722710539
42,port de pollenca,39.9075,3.0814,29.21,69,0,2.61,ES,1722710540
43,burang,30.25,81.1667,9.79,84,100,1.62,CN,1722710540
44,west island,-12.1568,96.8225,25.99,73,40,3.6,CC,1722710541
45,tiksi,71.6872,128.8694,6.36,81,99,0.58,RU,1722710541
46,edinburgh of the seven seas,-37.0676,-12.3116,11.66,71,100,13.52,SH,1722710542
47,port elizabeth,-33.918,25.5701,15.73,58,87,1.54,ZA,1722710263
48,ambanja,-13.6833,48.45,20.48,86,32,1.2,MG,1722710543
49,challans,46.8436,-1.8749,21.51,87,85,4.08,FR,1722710544
50,kodiak,57.79,-152.4072,12.73,71,75,2.06,US,1722710544
51,qamdo,31.1667,97.2333,7.41,83,90,1.55,CN,1722710545
52,keetmanshoop,-26.5833,18.1333,20.51,19,5,4.63,NA,1722710545
53,udachny,66.4167,112.4,13.15,72,77,2.27,RU,1722710546
54,madimba,-10.4,40.3333,22.62,83,20,5.14,TZ,1722710546
55,tashtagol,52.7657,87.8894,15.6,98,100,1.56,RU,1722710547
56,grytviken,-54.2811,-36.5092,-4.37,95,100,4.36,GS,1722710535
57,miquelon,47.0975,-56.3814,21.0,94,95,5.97,PM,1722710548
58,avarua,-21.2078,-159.775,19.03,82,100,0.51,CK,1722710548
59,tazovsky,67.4667,78.7,12.8,80,89,4.41,RU,1722710549
60,eydhafushi,5.1033,73.0708,28.77,72,28,3.28,MV,1722710549
61,chikola,43.1906,43.9209,23.47,61,9,3.1,RU,1722710549
62,cadillac,44.2519,-85.4012,29.89,34,0,5.66,US,1722710550
63,vadso,70.0744,29.7487,11.49,93,100,5.14,NO,1722710549
64,labrador city,52.9463,-66.9114,25.1,59,75,3.09,CA,1722710551
65,enewetak,11.3474,162.3373,28.14,77,99,0.12,MH,1722710552
66,sattahip,12.6664,100.9007,28.88,100,75,3.6,TH,1722710552
67,flying fish cove,-10.4217,105.6791,24.82,83,100,5.14,CX,1722710553
68,illizi,26.4833,8.4667,39.89,10,0,4.31,DZ,1722710553
69,ahwa,20.75,73.6833,23.75,98,100,3.86,IN,1722710554
70,arilje,43.7531,20.0956,23.2,63,14,1.24,RS,1722710554
71,gunjur,13.2019,-16.7339,29.04,70,75,5.14,GM,1722710554
72,santiago de cao,-7.9589,-79.2392,19.07,77,75,3.09,PE,1722710555
73,mitu,1.1983,-70.1733,30.02,63,85,0.69,CO,1722710342
74,waingapu,-9.6567,120.2641,22.11,83,100,2.14,ID,1722710556
75,bredasdorp,-34.5322,20.0403,7.82,90,97,1.23,ZA,1722710556
76,sirte,31.2089,16.5887,28.46,52,0,4.07,LY,1722710557
77,kenai,60.5544,-151.2583,13.9,84,100,6.17,US,1722710557
78,college,64.8569,-147.8028,11.18,89,100,2.57,US,1722710524
79,pombas,17.1503,-25.0201,26.88,76,42,3.71,CV,1722710558
80,pedersore,63.65,22.6833,17.22,92,100,4.44,FI,1722710558
81,boguchany,58.3814,97.4531,11.52,88,0,0.82,RU,1722710559
82,utrik,11.2278,169.8474,28.07,77,2,2.79,MH,1722710559
83,papatowai,-46.5619,169.4708,5.4,81,100,2.98,NZ,1722710560
84,poso,-1.3959,120.7524,24.05,79,94,2.35,ID,1722710560
85,flin flon,54.7682,-101.865,20.91,43,75,3.6,CA,1722710561
86,albany,42.6001,-73.9662,29.14,70,77,1.34,US,1722710397
87,longyearbyen,78.2186,15.6401,10.91,87,75,2.57,SJ,1722710562
88,buala,-8.145,159.5921,26.04,86,100,2.39,SB,1722710562
89,arkhangel'sk,64.5401,40.5433,16.06,100,20,2.0,RU,1722710562
90,deming,32.2687,-107.7586,33.94,21,0,3.09,US,1722710563
91,ismailia,30.6043,32.2723,27.7,66,0,4.67,EG,1722710563
92,eyl,7.9803,49.8164,25.72,76,66,10.75,SO,1722710564
93,antofagasta,-23.65,-70.4,16.6,76,100,3.17,CL,1722710164
94,saipan,15.1355,145.701,28.39,83,75,4.12,MP,1722710364
95,khairpur nathan shah,27.0936,67.7337,29.74,70,100,1.37,PK,1722710565
96,hotan,37.0997,79.9269,30.17,23,14,3.68,CN,1722710566
97,arhavi,41.3492,41.3069,23.95,81,21,1.7,TR,1722710566
98,blenheim,-41.516,173.9528,1.57,73,21,2.91,NZ,1722710567
99,susuman,62.7833,148.1667,5.83,73,8,0.76,RU,1722710567
100,colby,39.3958,-101.0524,33.03,39,0,6.17,US,1722710568
101,la passe,45.5549,-0.8967,23.13,76,1,3.66,FR,1722710568
102,san patricio,28.017,-97.5169,34.53,44,47,1.85,US,1722710568
103,amahai,-3.3333,128.9167,24.66,91,97,2.48,ID,1722710569
104,port lincoln,-34.7333,135.8667,10.91,73,100,3.86,AU,1722710546
105,nuuk,64.1835,-51.7216,4.34,87,20,4.12,GL,1722710417
106,margaret river,-33.95,115.0667,10.6,72,0,1.12,AU,1722710548
107,abu jibeha,11.4562,31.2285,25.12,70,100,2.33,SD,1722710571
108,ribeira brava,32.65,-17.0667,26.51,79,0,1.91,PT,1722710571
109,zhangatas,43.5667,69.75,25.25,24,0,2.08,KZ,1722710473
110,keyser,39.4409,-78.9739,31.25,65,50,3.36,US,1722710572
111,chonchi,-42.6128,-73.8092,8.95,90,100,2.0,CL,1722710560
112,morehead city,34.7229,-76.726,31.69,80,40,7.2,US,1722710573
113,al ghayzah,16.2079,52.176,25.84,84,41,6.91,YE,1722710573
114,georgetown,5.4112,100.3354,26.96,78,20,2.57,MY,1722710279
115,ngereklmadel,7.4883,134.4856,27.05,83,40,2.06,PW,1722710574
116,fauske,67.2588,15.3918,22.02,67,23,3.14,NO,1722710575
117,prince rupert,54.3161,-130.3201,17.05,74,0,3.09,CA,1722710575
118,sevastopol,44.6,33.5333,23.89,54,5,0.45,UA,1722710576
119,al bawiti,28.3492,28.8659,30.64,24,0,3.67,EG,1722710576
120,majene,-3.5403,118.9707,23.46,90,87,5.27,ID,1722710577
121,altay,47.8667,88.1167,19.5,40,2,2.6,CN,1722710577
122,qaryat suluq,31.6682,20.2521,28.16,56,0,4.72,LY,1722710578
123,kununurra,-15.7667,128.7333,14.99,94,10,1.54,AU,1722710578
124,konarka,19.9,86.1167,28.22,81,100,5.56,IN,1722710579
125,hermanus,-34.4187,19.2345,6.56,77,91,3.21,ZA,1722710559
126,chur,46.8499,9.5329,23.18,91,72,1.83,CH,1722710581
127,bikenibeu village,1.3673,173.1241,27.98,78,20,3.09,KI,1722710581
128,york,40.1254,-77.0,33.04,63,12,3.02,US,1722710582
129,puerto aysen,-45.4,-72.7,5.44,99,100,1.89,CL,1722710582
130,fortuna,40.5982,-124.1573,18.29,91,100,3.6,US,1722710582
131,aasiaat,68.7098,-52.8699,5.18,80,8,3.72,GL,1722710540
132,bekalta,35.6174,10.9947,30.01,73,85,6.8,TN,1722710583
133,sal rei,16.1833,-22.9167,27.11,69,75,1.03,CV,1722710584
134,taltal,-25.4,-70.4833,17.44,66,97,1.86,CL,1722710420
135,vila franca do campo,37.7167,-25.4333,25.23,70,60,0.21,PT,1722710585
136,vorgashor,67.5833,63.95,14.21,64,100,7.05,RU,1722710586
137,wailua homesteads,22.0669,-159.378,25.44,86,100,2.57,US,1722710586
138,ancud,-41.8697,-73.8203,9.18,82,100,6.48,CL,1722710572
139,kutum,14.2,24.6667,26.61,61,33,2.73,SD,1722710587
140,selfoss,63.9331,-20.9971,11.82,71,100,8.35,IS,1722710587
141,shendi,16.6915,33.4341,33.47,45,100,4.8,SD,1722710588
142,sisimiut,66.9395,-53.6735,8.75,73,21,3.06,GL,1722710543
143,tolanaro,-25.0319,46.9987,20.04,83,20,3.09,MG,1722710589
144,taiynsha,53.8478,69.7639,18.01,66,13,3.61,KZ,1722710589
145,qulsary,46.9531,54.0198,26.32,56,35,5.24,KZ,1722710590
146,arraial do cabo,-22.9661,-42.0278,24.98,73,40,8.75,BR,1722710475
147,talnakh,69.4865,88.3972,14.0,68,11,2.19,RU,1722710590
148,katsuura,35.1333,140.3,23.96,90,11,1.42,JP,1722710344
149,atafu village,-8.5421,-172.5159,28.24,75,73,6.86,TK,1722710591
150,barah,13.7,30.3667,30.64,50,100,3.94,SD,1722710592
151,nikolayevsk-on-amure,53.1406,140.73,10.55,82,59,0.77,RU,1722710592
152,kailaras,26.3167,77.6167,28.62,77,3,2.96,IN,1722710593
153,bonthe,7.5264,-12.505,25.1,86,100,6.35,SL,1722710593
154,kegeyli shahar,42.7767,59.6078,29.09,24,0,2.49,UZ,1722710593
155,lompoc,34.6391,-120.4579,32.1,47,0,4.34,US,1722710386
156,hadibu,12.65,54.0333,25.78,80,18,10.27,YE,1722710594
157,hamilton,39.1834,-84.5333,30.68,66,75,2.57,US,1722710595
158,codrington,-38.2667,141.9667,4.33,91,3,4.05,AU,1722710576
159,blackmans bay,-43.0167,147.3167,8.18,75,100,0.45,AU,1722710596
160,papao,-17.75,-149.55,24.82,67,23,4.72,PF,1722710596
161,canavieiras,-15.675,-38.9472,26.98,73,0,3.27,BR,1722710596
162,ulanhot,46.0833,122.0833,19.79,92,100,0.58,CN,1722710597
163,iskateley,67.6803,53.1512,10.55,78,98,7.83,RU,1722710597
164,kapenguria,1.2511,35.0895,13.84,87,100,2.54,KE,1722710598
165,conduaga,8.862,117.4893,25.26,83,100,1.01,PH,1722710598
166,bargaal,11.2864,51.0773,30.48,57,88,7.57,SO,1722710599
167,mountain home,43.133,-115.6912,30.71,16,40,5.66,US,1722710599
168,khanty-mansiysk,61.0042,69.0019,18.06,100,0,1.0,RU,1722710599
169,vilyuysk,63.7553,121.6247,10.59,60,0,1.2,RU,1722710600
170,gadzhiyevo,69.2551,33.3362,9.49,94,31,3.93,RU,1722710600
171,madras,13.0878,80.2785,27.23,93,100,2.57,IN,1722710552
172,cabo san lucas,22.8909,-109.9124,36.45,46,0,6.69,MX,1722710602
173,carnarvon,-24.8667,113.6333,17.32,68,0,6.1,AU,1722710602
174,pisco,-13.7,-76.2167,17.79,82,100,2.06,PE,1722710566
175,at taj,24.2049,23.2857,32.63,18,1,6.49,LY,1722710603
176,alaghsas,17.0187,8.0168,26.94,74,40,2.57,NE,1722710603
177,soio,-6.1349,12.3689,20.31,87,0,4.1,AO,1722710604
178,trincomalee,8.5711,81.2335,27.84,72,13,5.58,LK,1722710604
179,balkashino,52.5167,68.7667,17.62,54,34,3.66,KZ,1722710605
180,mweka,-4.85,21.5667,25.19,27,7,0.4,CD,1722710606
181,loningen,52.7333,7.7667,20.61,90,92,3.14,DE,1722710606
182,ceerigaabo,10.6162,47.368,19.43,61,73,10.39,SO,1722710606
183,klyuchi,52.2667,79.1667,18.44,90,100,4.89,RU,1722710607
184,tura,25.5198,90.2201,23.92,97,94,2.27,IN,1722710413
185,uturoa,-16.7333,-151.4333,24.86,65,85,5.42,PF,1722710608
186,koryazhma,61.3143,47.1691,15.5,97,87,1.68,RU,1722710608
187,tomatlan,19.9333,-105.25,26.12,89,100,1.14,MX,1722710608
188,villacanas,39.6237,-3.3381,32.29,21,0,3.28,ES,1722710609
189,kuqa,41.7278,82.9364,29.69,28,100,4.45,CN,1722710609
190,sinabang,2.4803,96.3801,25.39,83,100,4.22,ID,1722710610
191,newman,37.3138,-121.0208,36.12,35,74,0.45,US,1722710572
192,adrar,20.5022,-10.0711,37.17,26,87,3.78,MR,1722710611
193,al jawf,29.5,38.75,29.93,16,5,4.77,SA,1722710608
194,murghob,38.1702,73.9667,12.63,69,99,2.69,TJ,1722710612
195,namibe,-15.1961,12.1522,17.19,78,1,5.7,AO,1722710612
196,broken hill,-31.95,141.4333,11.82,40,100,3.02,AU,1722710613
197,novyy urengoy,66.0833,76.6333,17.57,90,100,4.48,RU,1722710613
198,el granada,37.5027,-122.4694,27.5,69,20,6.69,US,1722710614
199,ponta delgada,37.7333,-25.6667,25.4,69,20,3.09,PT,1722710614
200,yuzhno-kurilsk,44.0306,145.8556,16.74,98,98,2.78,RU,1722710615
201,remire-montjoly,4.9167,-52.2667,27.02,78,75,5.66,GF,1722710583
202,miles city,46.4083,-105.8406,31.54,30,0,2.57,US,1722710615
203,la'ie,21.6477,-157.9253,26.73,80,34,1.79,US,1722710616
204,isangel,-19.55,169.2667,20.11,70,0,5.54,VU,1722710616
205,sorong,-0.8833,131.25,25.38,88,98,2.63,ID,1722710617
206,moussoro,13.6408,16.4901,29.52,58,90,3.68,TD,1722710617
207,soderhamn,61.3037,17.0592,17.2,95,16,1.41,SE,1722710593
208,changnyeong,35.5415,128.4951,28.77,94,0,0.51,KR,1722710618
209,buritizeiro,-17.3511,-44.9622,27.48,41,100,6.49,BR,1722710618
210,tuymazy,54.6067,53.7097,14.38,90,57,2.7,RU,1722710619
211,mchinji,-13.7984,32.8802,15.7,34,11,1.1,MW,1722710619
212,bogatyye saby,56.0102,50.4483,15.66,93,100,3.54,RU,1722710620
213,bardai,11.65,7.2333,21.8,91,70,2.79,NG,1722710593
214,yanqul,23.5905,56.5501,36.27,35,100,1.79,OM,1722710621
215,st. john's,47.5649,-52.7093,25.66,53,20,6.17,CA,1722710360
216,alotau,-10.3069,150.4462,21.73,94,100,2.37,PG,1722710621
217,lorengau,-2.0226,147.2712,27.03,84,95,4.67,PG,1722710622
218,hawaiian paradise park,19.5933,-154.9731,23.83,98,100,3.09,US,1722710521
219,hafar al-batin,28.4328,45.9708,38.32,10,0,4.12,SA,1722710623
220,tazacorte,28.629,-17.9293,24.54,73,20,6.69,ES,1722710623
221,matoury,4.8483,-52.3317,26.98,78,75,5.66,GF,1722710624
222,cidreira,-30.1811,-50.2056,20.78,74,0,6.03,BR,1722710624
223,lawrenceburg,38.0373,-84.8966,28.82,69,40,4.12,US,1722710624
224,blacksburg,37.2296,-80.4139,28.22,45,49,4.47,US,1722710625
225,cozumel,20.5083,-86.9458,32.19,70,40,3.09,MX,1722710626
226,pirallahi,40.4723,50.333,26.08,66,0,3.56,AZ,1722710626
227,haiku-pauwela,20.9219,-156.3051,24.54,89,75,6.17,US,1722710627
228,weno,7.4515,151.8468,27.97,78,100,2.06,FM,1722710627
229,tocopilla,-22.092,-70.1979,18.89,63,0,2.11,CL,1722710513
230,yerkoy,39.6381,34.4672,26.53,22,0,0.42,TR,1722710628
231,ulysses,37.5814,-101.3552,33.66,43,75,2.06,US,1722710584
232,pitkyaranta,61.5734,31.4792,16.33,86,29,2.46,RU,1722710629
233,qui nhon,13.7667,109.2333,26.25,84,100,2.23,VN,1722710630
234,angaur state,6.906,134.13,28.8,76,100,5.73,PW,1722710630
235,loikaw,19.6742,97.2094,20.02,97,88,1.24,MM,1722710631
236,manismata,-2.4667,111.0333,22.59,99,100,1.25,ID,1722710631
237,port said,31.2565,32.2841,28.99,65,0,5.14,EG,1722710631
238,reggane,26.7158,0.1714,39.95,5,0,5.49,DZ,1722710632
239,solnechnyy,50.7214,136.6319,12.47,84,0,1.87,RU,1722710632
240,verkhnevilyuysk,63.4453,120.3167,9.92,63,1,0.37,RU,1722710633
241,vilyuchinsk,52.9306,158.4028,11.15,87,99,3.0,RU,1722710633
242,retreat,38.8245,-85.8533,31.52,65,0,1.34,US,1722710634
243,constantia,44.1833,28.65,26.5,57,100,9.68,RO,1722710409
244,cadale,2.7603,46.3222,24.89,85,100,7.52,SO,1722710635
245,watsa,3.0372,29.5355,18.85,96,100,1.36,CD,1722710635
246,chifeng,42.2683,118.9636,24.01,87,100,1.3,CN,1722710636
247,kingston,17.997,-76.7936,32.53,66,20,9.77,JM,1722710458
248,lannion,48.75,-3.4167,17.3,82,100,3.09,FR,1722710637
249,polyarnyy,69.1989,33.4478,9.71,91,16,3.66,RU,1722710637
250,usinsk,65.9939,57.5281,16.69,83,100,8.11,RU,1722710637
251,sanctuary point,-35.1114,150.629,7.96,81,78,3.44,AU,1722710638
252,dudinka,69.4058,86.1778,11.81,75,9,4.97,RU,1722710638
253,makamba,-4.1348,29.804,19.53,47,48,0.72,BI,1722710639
254,allapalli,19.4167,80.0667,24.49,96,100,2.66,IN,1722710639
255,stanley,54.868,-1.6985,17.06,60,20,6.17,GB,1722710640
256,brandon,27.9378,-82.2859,26.93,84,40,4.63,US,1722710379
257,caceres,39.522,-6.3748,33.84,17,0,1.42,ES,1722710641
258,ilulissat,69.2167,-51.1,12.01,54,0,2.57,GL,1722710641
259,punta arenas,-53.15,-70.9167,2.06,75,100,5.66,CL,1722710605
260,cassia,-20.5831,-46.9219,27.09,34,47,4.17,BR,1722710642
261,hailey,43.5196,-114.3153,34.96,20,100,1.79,US,1722710643
262,ust-nera,64.5667,143.2,8.21,71,21,2.26,RU,1722710643
263,rampur,28.8167,79.0333,26.21,81,100,1.47,IN,1722710644
264,banepa,27.6298,85.5214,22.18,83,40,1.54,NP,1722710644
265,l'aquila,42.365,13.3935,23.91,87,100,0.89,IT,1722710644
266,santyoku,37.4406,129.1708,25.83,84,0,1.21,KR,1722710645
267,belle fourche,44.6714,-103.8522,37.22,13,13,5.54,US,1722710646
268,puerto deseado,-47.7503,-65.8938,4.76,86,100,7.93,AR,1722710646
269,rongelap,11.1635,166.8941,27.99,78,31,1.72,MH,1722710646
270,vincennes,48.85,2.4333,22.9,72,100,4.47,FR,1722710647
271,sitka,57.0531,-135.33,16.94,67,75,4.12,US,1722710647
272,northam,51.0333,-4.2167,16.88,78,100,4.02,GB,1722710648
273,albemarle,35.3501,-80.2001,32.51,70,40,3.6,US,1722710648
274,tahe,52.3333,124.7333,16.9,52,100,1.19,CN,1722710649
275,anadyr,64.75,177.4833,9.28,87,75,3.0,RU,1722710620
276,onega,63.9061,38.1404,13.53,92,44,2.72,RU,1722710650
277,pont rouge,48.8833,-72.0825,27.06,72,97,3.2,CA,1722710650
278,san luis,-33.295,-66.3356,19.43,15,0,3.91,AR,1722710650
279,port augusta,-32.5,137.7667,11.1,76,100,1.02,AU,1722710651
280,santiago,-33.4569,-70.6483,15.66,58,0,2.06,CL,1722710569
281,pariaman,-0.619,100.12,25.03,89,60,1.9,ID,1722710652
282,jieshi,22.8134,115.8257,28.7,85,6,5.98,CN,1722710652
283,gloversville,43.0528,-74.3438,29.17,74,40,3.6,US,1722710653
284,lebu,-37.6167,-73.65,11.54,82,85,6.14,CL,1722710654
285,bhisho,-32.8472,27.4422,14.35,21,100,3.03,ZA,1722710654
286,ketchikan,55.3422,-131.6461,20.26,56,0,5.14,US,1722710655
287,guangyuan,32.442,105.823,23.85,95,96,1.33,CN,1722710655
288,jiexiu,37.0244,111.9125,24.02,75,88,0.86,CN,1722710655
289,kharkhorin,47.1975,102.8238,13.92,63,31,1.91,MN,1722710656
290,wisconsin rapids,44.3836,-89.8174,29.66,39,0,3.6,US,1722710656
291,grand baie,-20.0182,57.5802,21.26,84,32,6.32,MU,1722710657
292,ta`u,-14.2336,-169.5144,26.92,61,100,4.46,AS,1722710624
293,nova sintra,14.8667,-24.7167,26.73,71,100,1.88,CV,1722710558
294,westport,41.1415,-73.3579,33.49,62,0,6.17,US,1722710658
295,severo-yeniseyskiy,60.3725,93.0408,11.41,78,25,1.06,RU,1722710659
296,kon tum,14.35,108.0,20.51,95,94,0.7,VN,1722710414
297,beledweyne,4.7358,45.2036,25.89,63,96,9.83,SO,1722710659
298,berezovyy,51.6667,135.7,11.51,79,8,1.3,RU,1722710660
299,mar del plata,-38.0023,-57.5575,18.3,45,0,5.36,AR,1722710469
300,patterson,37.4716,-121.1297,36.68,35,46,2.46,US,1722710661
301,shetpe,44.1667,52.1167,27.83,36,0,2.26,KZ,1722710473
302,lahij,13.1667,44.5833,32.26,45,72,1.81,YE,1722710662
303,hawera,-39.5917,174.2833,6.8,81,2,2.17,NZ,1722710662
304,ambon,-3.6954,128.1814,27.15,95,75,3.6,ID,1722710663
305,kavalerovo,44.2661,135.0572,15.31,96,100,1.03,RU,1722710663
306,novokorsunskaya,45.6408,39.1464,24.32,44,0,3.38,RU,1722710664
307,afaahiti,-17.75,-149.2833,23.93,67,59,4.46,PF,1722710665
308,kenora,49.8167,-94.4337,20.54,83,100,3.6,CA,1722710665
309,tindouf,27.6711,-8.1474,44.25,10,47,1.54,DZ,1722710665
310,along,28.1667,94.7667,22.34,99,100,0.28,IN,1722710666
311,tulum,20.2167,-87.4667,31.99,58,100,2.53,MX,1722710413
312,sanguem,15.2333,74.1667,26.71,94,100,2.15,IN,1722710667
313,pyapon,16.2833,95.6833,26.14,90,100,1.63,MM,1722710667
314,kalispell,48.1958,-114.3129,28.02,34,0,0.0,US,1722710668
315,tidjikja,18.5564,-11.4271,30.45,52,100,4.04,MR,1722710668
316,tevriz,57.509,72.4042,15.2,92,37,1.96,RU,1722710669
317,nicoya,10.1483,-85.452,30.79,64,100,0.56,CR,1722710669
318,swan hill,-35.3378,143.5544,5.71,91,100,2.54,AU,1722710669
319,mareeba,-17.0,145.4333,15.4,86,0,1.15,AU,1722710670
320,shingu,33.7333,135.9833,25.63,92,1,1.17,JP,1722710670
321,callao,-12.0667,-77.15,23.01,79,56,3.96,PE,1722710133
322,pionerskiy,54.9508,20.2275,17.91,76,16,3.61,RU,1722710671
323,collie,-33.3667,116.15,5.01,89,0,0.93,AU,1722710672
324,cabedelo,-6.9811,-34.8339,28.37,72,2,7.6,BR,1722710635
325,aban,56.67,96.06,11.63,95,0,2.53,RU,1722710672
326,mejit,10.2753,170.8646,27.84,76,27,2.16,MH,1722710673
327,kristiansund,63.1115,7.732,19.03,81,75,1.54,NO,1722710673
328,takum,7.2667,9.9833,23.4,89,85,1.22,NG,1722710674
329,mumford,5.2618,-0.759,23.48,91,12,4.55,GH,1722710674
330,suriapet,17.15,79.6167,26.73,79,100,4.48,IN,1722710675
331,bac lieu,9.285,105.7244,26.22,86,100,3.7,VN,1722710675
332,rio preto da eva,-2.6994,-59.6997,33.43,43,97,0.89,BR,1722710676
333,road town,18.4167,-64.6167,31.05,70,40,6.69,VG,1722710676
334,naze,28.3667,129.4833,26.51,87,6,2.05,JP,1722710677
335,colonia,50.9333,6.95,23.03,73,0,4.12,DE,1722710586
336,egilsstadir,65.2653,-14.3948,13.95,67,40,4.63,IS,1722710677
337,lakhipur,26.0299,90.3041,25.27,93,94,0.3,IN,1722710678
338,guano,-1.5833,-78.6333,17.56,41,94,5.21,EC,1722710678
339,nangong,37.3581,115.3744,27.55,86,98,2.2,CN,1722710679
340,morinville,53.8001,-113.652,26.38,35,75,6.17,CA,1722710679
341,mabaruma,8.2,-59.7833,31.09,62,22,2.79,GY,1722710680
342,amlapura,-8.45,115.6167,23.28,88,76,2.9,ID,1722710680
343,tyukhtet,56.5389,89.3011,14.8,92,0,2.83,RU,1722710681
344,ocean city,39.2776,-74.5746,32.32,74,96,6.39,US,1722710681
345,pacific grove,36.6177,-121.9166,26.78,83,35,2.68,US,1722710681
346,muravlenko,63.7898,74.523,17.38,91,16,3.38,RU,1722710682
347,nelson bay,-32.7167,152.15,7.27,95,99,2.34,AU,1722710682
348,howrah,22.5892,88.3103,28.0,94,40,2.57,IN,1722710683
349,karratha,-20.7377,116.8463,20.27,75,0,3.02,AU,1722710596
350,okhotsk,59.3833,143.3,11.63,81,39,1.03,RU,1722710684
351,coquimbo,-29.9533,-71.3436,14.85,82,0,4.63,CL,1722710516
352,alvaraes,-3.2208,-64.8042,31.93,55,100,1.32,BR,1722710684
353,hell-ville,-13.4,48.2667,24.33,72,16,1.76,MG,1722710685
354,scone,56.4194,-3.4051,17.76,71,43,4.35,GB,1722710685
355,tynda,55.1667,124.7167,9.69,92,82,0.92,RU,1722710686
356,rio hato,8.3833,-80.1667,27.48,74,100,1.64,PA,1722710686
357,roma,43.2128,-75.4557,29.27,68,0,4.63,US,1722710446
358,rokytne,51.2796,27.214,14.89,98,100,2.17,UA,1722710688
359,hithadhoo,-0.6,73.0833,28.24,78,100,3.76,MV,1722710688
360,labytnangi,66.6572,66.4183,16.77,71,100,10.19,RU,1722710688
361,thames,-37.1333,175.5333,9.23,86,97,3.08,NZ,1722710689
362,thomaston,32.8882,-84.3266,32.83,65,99,0.89,US,1722710689
363,nova xavantina,-14.6667,-52.35,34.28,19,0,2.11,BR,1722710690
364,east london,-33.0153,27.9116,17.52,59,0,3.09,ZA,1722710548
365,kirensk,57.7853,108.1119,14.62,70,58,1.33,RU,1722710691
366,pandan,14.0453,124.1694,26.44,87,99,2.04,PH,1722710590
367,tianpeng,30.9866,103.9393,24.26,90,100,3.71,CN,1722710691
368,isfahan,32.6572,51.6776,32.8,13,5,5.41,IR,1722710574
369,tual,-5.6667,132.75,25.33,87,94,9.71,ID,1722710622
370,midvagur,62.0511,-7.1939,12.46,94,75,5.66,FO,1722710693
371,lamarque,-39.423,-65.7021,16.32,25,100,13.89,AR,1722710693
372,huarmey,-10.0681,-78.1522,20.27,69,29,4.71,PE,1722710694
373,kamojimacho-jogejima,34.0667,134.35,26.9,87,0,1.28,JP,1722710694
374,obihiro,42.9172,143.2044,20.12,98,80,1.11,JP,1722710694
375,mount gambier,-37.8333,140.7667,3.55,94,98,2.14,AU,1722710695
376,banda aceh,5.5577,95.3222,26.77,77,100,5.51,ID,1722710542
377,hinton,53.4001,-117.5857,26.87,33,11,2.35,CA,1722710696
378,pimentel,-6.8367,-79.9342,20.16,73,100,3.6,PE,1722710697
379,quelimane,-17.8786,36.8883,21.97,73,0,3.13,MZ,1722710698
380,vilhena,-12.7406,-60.1458,33.12,31,40,5.14,BR,1722710623
381,lihue,21.9789,-159.3672,25.77,81,100,2.57,US,1722710689
382,kidal,18.4411,1.4078,33.2,40,1,5.73,ML,1722710699
383,port alfred,-33.5906,26.891,18.43,42,83,5.11,ZA,1722710699
384,simanggang,1.2472,111.4528,24.99,94,99,0.0,MY,1722710700
385,tinghir,31.5157,-5.5343,33.81,8,13,4.57,MA,1722710700
386,tashtyp,52.7939,89.8983,17.31,91,99,2.0,RU,1722710701
387,gunnedah,-30.9833,150.25,5.48,71,100,1.21,AU,1722710701
388,amursk,50.2261,136.8994,11.85,87,11,2.99,RU,1722710463
389,luanda,-8.8368,13.2343,21.0,83,20,3.6,AO,1722710702
390,maua,-23.6678,-46.4614,28.16,36,0,0.6,BR,1722710703
391,forster,-32.1667,152.5167,8.52,85,55,2.6,AU,1722710703
392,elkins,38.9259,-79.8467,25.0,88,100,2.06,US,1722710704
393,raduzhny,62.0961,77.475,16.79,95,77,2.44,RU,1722710704
394,christchurch,-43.5333,172.6333,-0.73,93,96,1.54,NZ,1722710389
395,vernon,50.2581,-119.2691,34.61,28,0,1.03,CA,1722710705
396,melekeok village,7.4957,134.6367,27.31,83,40,2.06,PW,1722710706
397,malanje,-9.5402,16.341,24.17,14,0,1.39,AO,1722710604
398,acapulco de juarez,16.8634,-99.8901,29.9,74,75,4.12,MX,1722710707
399,magadan,59.5667,150.8,11.12,59,1,1.92,RU,1722710707
400,am timan,11.0297,20.2827,23.61,91,100,1.88,TD,1722710708
401,las palmas de gran canaria,28.0997,-15.4134,28.21,57,0,14.92,ES,1722710708
402,saudarkrokur,65.7461,-19.6394,14.11,65,100,3.8,IS,1722710709
403,bol'sherech'ye,56.0925,74.6272,16.23,92,100,3.3,RU,1722710709
404,san rafael,-34.6177,-68.3301,17.95,20,100,5.72,AR,1722710615
405,san pedro pochutla,15.7333,-96.4667,33.73,51,33,3.93,MX,1722710710
406,hamar,60.7945,11.068,17.35,74,100,1.53,NO,1722710711
407,sechura,-5.5569,-80.8222,24.26,56,36,6.22,PE,1722710558
408,mirabad,30.4362,61.8383,35.34,14,12,8.65,AF,1722710712
409,silver city,32.7701,-108.2803,31.28,30,0,5.66,US,1722710712
410,pahrump,36.2083,-115.9839,38.3,24,5,2.68,US,1722710713
411,laguna,38.421,-121.4238,37.02,26,0,2.57,US,1722710714
412,den burg,53.0542,4.7972,19.98,88,75,5.66,NL,1722710714
413,bayji,34.9311,43.487,35.59,16,0,6.46,IQ,1722710715
414,douglas,41.3,-96.167,34.25,48,0,3.6,US,1722710715
415,chiredzi,-21.05,31.6667,19.34,32,0,2.14,ZW,1722710716
416,arris,35.2588,6.3471,23.02,52,0,5.32,DZ,1722710716
417,kapuskasing,49.4169,-82.4331,24.05,46,75,8.23,CA,1722710716
418,san julian,21.0167,-102.1667,22.74,52,100,3.62,MX,1722710717
419,shakhtinsk,49.71,72.5872,20.7,42,100,3.21,KZ,1722710717
420,tahoua,14.8888,5.2692,22.99,94,40,5.14,NE,1722710718
421,aginskoye,51.1,114.53,16.63,97,100,1.68,RU,1722710718
422,la palma,33.8464,-118.0467,36.06,49,0,4.12,US,1722710719
423,mbengwi,6.0167,10.0,18.6,97,100,1.85,CM,1722710719
424,muroto-misakicho,33.2833,134.15,28.44,82,0,1.69,JP,1722710720
425,wolow,51.3366,16.6443,22.24,65,65,1.69,PL,1722710720
426,zhezqazghan,47.7833,67.7667,25.79,24,0,3.39,KZ,1722710721
427,hilo,19.7297,-155.09,24.23,99,100,3.09,US,1722710644
428,manchester,53.4809,-2.2374,19.07,55,1,4.12,GB,1722710513
429,kyakhta,50.3508,106.4494,13.99,82,94,0.74,RU,1722710722
430,maholi,27.6667,80.4667,27.25,79,48,6.45,IN,1722710722
431,saint-joseph,-21.3667,55.6167,18.21,75,8,2.58,RE,1722710723
432,baikonur,45.6167,63.3167,28.84,26,2,2.67,KZ,1722710723
433,pingliang,35.5392,106.6861,18.91,85,68,0.56,CN,1722710561
434,viedma,-40.8135,-62.9967,15.51,23,98,10.39,AR,1722710428
435,oerlenbach,50.15,10.1333,21.36,95,100,3.22,DE,1722710724
436,angra do heroismo,38.65,-27.2167,26.34,69,20,1.43,PT,1722710476
437,kibre mengist,5.8833,38.9833,15.53,90,100,0.94,ET,1722710725
438,khandyga,62.6667,135.6,11.06,66,100,1.6,RU,1722710726
439,el calafate,-50.3408,-72.2768,2.7,93,100,0.3,AR,1722710726
440,nampa,43.5407,-116.5635,35.23,32,100,1.31,US,1722710724
441,chui,-33.6971,-53.4616,13.69,86,100,5.31,UY,1722710727
442,mili,6.0815,171.735,28.73,68,74,3.29,MH,1722710728
443,lycksele,64.5954,18.6735,16.93,82,75,2.06,SE,1722710728
444,nguru,12.8791,10.4526,25.95,70,49,5.76,NG,1722710729
445,san lorenzo,-25.3333,-57.5333,33.44,41,20,5.14,PY,1722710654
446,san antonio de pale,-1.4014,5.6325,22.88,73,95,5.14,GQ,1722710554
447,tianjin,39.1422,117.1767,26.97,89,75,3.0,CN,1722710730
448,niort,46.3333,-0.3333,22.32,73,0,4.43,FR,1722710730
449,gizo,-8.103,156.8419,27.03,84,100,9.14,SB,1722710731
450,eraan,9.0629,117.7016,25.48,82,100,1.21,PH,1722710731
451,touros,-5.1989,-35.4608,26.12,69,0,8.02,BR,1722710732
452,mana,5.6592,-53.7767,26.63,84,94,4.16,GF,1722710732
453,klaksvik,62.2266,-6.589,12.51,91,0,6.36,FO,1722710732
454,aroma,15.8167,36.1333,30.35,53,100,2.41,SD,1722710733
455,arcos,-20.2819,-45.5394,25.49,43,60,6.4,BR,1722710696
456,puerto madero,14.7208,-92.4215,32.11,66,40,0.0,MX,1722710734
457,macae,-22.3708,-41.7869,22.86,88,100,4.63,BR,1722710615
458,shumikha,55.2261,63.2961,13.55,94,28,3.48,RU,1722710735
459,aldinga beach,-35.2793,138.4604,10.98,79,100,3.62,AU,1722710735
460,sarandi grande,-33.7333,-56.3333,12.66,87,100,4.85,UY,1722710736
461,las vegas,36.175,-115.1372,40.06,24,0,2.57,US,1722710521
462,altamont,42.2068,-121.7372,28.27,46,0,0.89,US,1722710736
463,rafsanjan,30.4067,55.9939,33.87,30,82,3.84,IR,1722710737
464,saint-philippe,-21.3585,55.7679,18.77,75,10,2.61,RE,1722710737
465,birao,10.2849,22.7882,22.58,94,100,2.23,CF,1722710738
466,smithers,54.7804,-127.1743,21.18,40,0,3.09,CA,1722710738
467,tirlyanskiy,54.2109,58.5806,13.07,82,77,2.35,RU,1722710739
468,finnentrop,51.1667,7.9667,20.95,94,100,1.97,DE,1722710739
469,levuka,50.1834,-105.4011,23.9,24,96,3.59,CA,1722710740
470,lovington,32.944,-103.3485,34.47,45,100,0.45,US,1722710740
471,micheweni,-4.9667,39.8333,24.37,77,9,5.88,TZ,1722710740
472,arteche,12.2645,125.4048,24.98,93,91,1.78,PH,1722710741
473,lata,40.1629,-8.3327,21.71,57,0,2.44,PT,1722710741
474,walvis bay,-22.9575,14.5053,13.38,80,5,1.47,NA,1722710621
475,cockburn town,21.4612,-71.1419,28.27,84,94,8.36,TC,1722710742
476,vytegra,61.0064,36.4481,15.01,96,100,0.61,RU,1722710743
477,grand falls-windsor,48.9332,-55.6649,30.84,48,22,1.34,CA,1722710743
478,bom jesus do galho,-19.8289,-42.3161,24.33,52,96,3.72,BR,1722710744
479,kayangel,8.0823,134.7173,28.56,76,100,6.42,PW,1722710745
480,ola,59.5833,151.2833,10.98,60,0,1.47,RU,1722710745
481,thurso,58.5927,-3.5259,14.92,79,100,1.06,GB,1722710745
482,major isidoro,-9.5322,-36.985,26.09,57,58,6.49,BR,1722710746
483,mala,-12.6581,-76.6308,18.98,72,10,3.4,PE,1722710746
484,conde,-7.2597,-34.9075,27.7,57,20,8.23,BR,1722710747
485,al qusayr,34.5091,36.5798,24.63,53,0,3.32,SY,1722710747
486,gebeit,21.0667,36.3167,26.78,56,62,1.3,SD,1722710748
487,svetlyy,54.675,20.1347,18.03,87,9,1.42,RU,1722710749
488,porto velho,-8.7619,-63.9039,34.03,43,40,2.57,BR,1722710523
489,behror,27.8833,76.2833,27.55,82,57,4.22,IN,1722710749
490,kogalym,62.2654,74.4791,17.93,87,74,3.17,RU,1722710750
491,dahlonega,34.5326,-83.9849,30.55,64,28,3.69,US,1722710750
492,carutapera,-1.195,-46.02,29.67,62,12,5.59,BR,1722710751
493,palmer,42.1584,-72.3287,32.03,58,75,4.63,US,1722710751
494,shimoda,34.6667,138.95,25.61,85,5,1.49,JP,1722710752
495,saint-georges,12.0564,-61.7485,31.82,70,20,6.69,GD,1722710677
496,fort abbas,29.1925,72.8536,33.01,58,100,4.05,PK,1722710753
497,caleta de carquin,-11.0925,-77.6267,19.54,70,23,4.03,PE,1722710753
498,sihanoukville,10.6093,103.5296,25.97,89,40,2.06,KH,1722710753
499,port hedland,-20.3167,118.5667,17.03,94,0,4.12,AU,1722710754
500,puerto baquerizo moreno,-0.9,-89.6,24.55,83,40,6.69,EC,1722710754
501,goondiwindi,-28.55,150.3167,7.31,73,0,3.0,AU,1722710755
502,bodaybo,57.8506,114.1933,14.74,94,100,1.14,RU,1722710755
503,jiuquan,39.7432,98.5174,25.18,20,83,1.27,CN,1722710756
504,kakata,6.53,-10.3517,25.49,94,78,2.39,LR,1722710757
505,satsuma,30.8532,-88.0561,36.27,53,100,0.64,US,1722710757
506,yoloten,37.2989,62.3597,29.04,17,0,4.85,TM,1722710758
507,turpan,42.9333,89.1667,36.49,15,11,1.66,CN,1722710758
508,plesetsk,62.708,40.2916,14.79,97,99,1.93,RU,1722710759
509,shemgang,27.2169,90.6579,18.19,97,96,1.37,BT,1722710760
510,tralee,52.2704,-9.7026,16.14,77,40,5.66,IE,1722710547
511,geraldton,-28.7667,114.6,9.23,76,0,1.54,AU,1722710760
512,santa cruz,-17.8,-63.1667,31.7,51,40,12.86,BO,1722710703
513,happy valley-goose bay,53.3168,-60.3315,25.17,57,40,4.12,CA,1722710710
514,princeville,45.7668,-61.2985,29.19,74,75,4.12,CA,1722710762
515,hadgaon,19.5,77.6667,24.37,90,100,5.52,IN,1722710762
516,novodvinsk,64.4165,40.8122,14.86,97,98,2.6,RU,1722710763
517,severnoye,56.3491,78.3619,17.47,99,100,3.4,RU,1722710617
518,kattivakkam,13.2167,80.3167,27.29,99,100,4.24,IN,1722710764
519,khandud,36.9513,72.318,21.16,48,93,2.95,AF,1722710764
520,kiunga,-6.1219,141.2906,22.7,91,100,2.06,PG,1722710660
521,mugia,43.1041,-9.2179,25.65,78,0,5.96,ES,1722710630
522,kimbe,-5.5502,150.1429,24.86,93,100,2.35,PG,1722710766
523,aljezur,37.3191,-8.8033,19.72,80,4,4.89,PT,1722710766
524,taulaga,-11.0553,-171.0883,27.44,69,100,4.32,AS,1722710555
525,usta muhammad,28.1794,68.0445,30.54,67,100,2.85,PK,1722710767
526,aleg,17.0481,-13.9209,35.42,39,100,3.67,MR,1722710768
527,jaleshwar,26.6471,85.8008,26.45,84,69,8.57,NP,1722710769
528,kabala,9.5833,-11.55,22.09,97,99,2.38,SL,1722710769
529,hastings,50.8552,0.5729,19.99,87,100,6.77,GB,1722710770
530,keflavik,64.0049,-22.5624,15.95,58,75,8.75,IS,1722710552
531,kiama,-34.6833,150.8667,8.1,77,28,0.89,AU,1722710770
532,abashiri,44.0213,144.2697,19.8,96,14,4.22,JP,1722710771
533,rundu,-17.9333,19.7667,19.78,20,0,2.51,NA,1722710771
534,udaipur,24.5712,73.6918,23.39,96,86,2.25,IN,1722710772
535,dano,11.15,-3.0667,25.85,78,100,2.56,BF,1722710772
536,san sebastian de la gomera,28.0916,-17.1133,30.21,47,0,2.57,ES,1722710773
537,massawa,15.6097,39.45,32.4,66,100,2.81,ER,1722710773
538,basco,20.4487,121.9702,29.37,80,13,4.97,PH,1722710774
539,tara,56.8944,74.371,16.14,94,100,2.84,RU,1722710774
540,paidha,2.4167,30.9855,17.47,81,74,1.96,UG,1722710775
541,payson,40.0444,-111.7321,33.0,26,0,0.0,US,1722710775
542,nynashamn,58.9034,17.9479,19.53,77,99,1.08,SE,1722710775
543,khanbari,27.3747,87.2039,23.6,89,77,0.21,NP,1722710776
544,bamboo flat,11.7,92.7167,26.05,94,100,1.03,IN,1722710776
545,oranjemund,-28.55,16.4333,13.62,91,52,6.26,NA,1722710777
546,perbaungan,3.5679,98.956,23.06,98,100,2.34,ID,1722710777
547,ad darb,17.7229,42.2526,29.93,69,96,3.56,SA,1722710778
548,wanning,18.8003,110.3967,26.6,90,94,2.87,CN,1722710778
549,igarka,67.4667,86.5833,12.24,97,35,1.33,RU,1722710778
550,peniche,39.3558,-9.3811,22.94,85,0,7.64,PT,1722710779
551,smara,26.7384,-11.6719,38.01,18,98,9.85,EH,1722710779
552,tanguieta,10.6212,1.2665,23.85,91,100,1.62,BJ,1722710780
553,sambava,-14.2667,50.1667,20.72,66,1,5.6,MG,1722710780
554,mikuni,36.2171,136.1519,25.95,84,6,2.43,JP,1722710781
555,sananduva,-27.9497,-51.8067,23.8,65,68,3.06,BR,1722710619
556,olinda,-8.0089,-34.8553,27.85,61,40,8.75,BR,1722710782
557,al khums,32.6486,14.2619,28.76,60,0,4.28,LY,1722710782
558,pontianak,-0.0333,109.3333,24.99,100,100,0.51,ID,1722710782
559,lospalos,-8.5186,127.0025,20.42,92,92,2.65,TL,1722710783
560,gilgit,35.9221,74.3087,27.95,55,22,1.69,PK,1722710783
561,lusambo,-4.9667,23.45,25.0,31,1,0.98,CD,1722710784
562,rabak,13.1809,32.74,26.68,70,100,3.44,SD,1722710784
563,penzance,50.1186,-5.5371,17.38,70,100,5.38,GB,1722710785
564,rikaze,29.25,88.8833,15.05,52,70,1.67,CN,1722710785
565,mil'kovo,55.6078,37.7956,19.22,70,0,2.82,RU,1722710785
566,muisne,0.6,-80.0333,24.44,84,99,5.28,EC,1722710786
567,hami,42.8,93.45,28.95,20,0,5.27,CN,1722710786
568,akureyri,65.6835,-18.0878,14.96,67,75,4.63,IS,1722710787
569,nalhati,24.3,87.8167,27.11,87,100,2.49,IN,1722710787
570,mata-utu,-13.2816,-176.1745,26.53,77,95,5.1,WF,1722710788
